header: 
  seq: 12905
  stamp: 
    secs: 1648516586
    nsecs: 626922317
  frame_id: "map"
pose: 
  position: 
    x: -0.399604797363
    y: -1.28988265991
    z: 0.0
  orientation: 
    x: 0.0
    y: 0.0
    z: -0.0912543311715
    w: 0.995827615261
---
header: 
  seq: 12906
  stamp: 
    secs: 1648516586
    nsecs: 706984382
  frame_id: "map"
pose: 
  position: 
    x: -0.421669006348
    y: -1.2770614624
    z: 0.0
  orientation: 
    x: 0.0
    y: 0.0
    z: -0.0831683203578
    w: 0.996535539627
---
header: 
  seq: 12907
  stamp: 
    secs: 1648516586
    nsecs: 801076463
  frame_id: "map"
pose: 
  position: 
    x: -0.400840759277
    y: -1.27961349487
    z: 0.0
  orientation: 
    x: 0.0
    y: 0.0
    z: -0.0730092376471
    w: 0.997331261635
---
header: 
  seq: 12908
  stamp: 
    secs: 1648516586
    nsecs: 866893715
  frame_id: "map"
pose: 
  position: 
    x: -0.414966583252
    y: -1.27767181396
    z: 0.0
  orientation: 
    x: 0.0
    y: 0.0
    z: -0.0650957673788
    w: 0.99787902832
---
header: 
  seq: 12909
  stamp: 
    secs: 1648516586
    nsecs: 906848339
  frame_id: "map"
pose: 
  position: 
    x: -0.410301208496
    y: -1.28123092651
    z: 0.0
  orientation: 
    x: 0.0
    y: 0.0
    z: -0.0612018406391
    w: 0.998125433922
---
header: 
  seq: 12910
  stamp: 
    secs: 1648516587
    nsecs:    969223
  frame_id: "map"
pose: 
  position: 
    x: -0.405540466309
    y: -1.28199005127
    z: 0.0
  orientation: 
    x: 0.0
    y: 0.0
    z: -0.0537288375199
    w: 0.998555541039
---
header: 
  seq: 12911
  stamp: 
    secs: 1648516587
    nsecs:  67129244
  frame_id: "map"
pose: 
  position: 
    x: -0.417613983154
    y: -1.2739906311
    z: 0.0
  orientation: 
    x: 0.0
    y: 0.0
    z: -0.0500242784619
    w: 0.998748004436
---
header: 
  seq: 12912
  stamp: 
    secs: 1648516587
    nsecs: 146862967
  frame_id: "map"
pose: 
  position: 
    x: -0.400524139404
    y: -1.28132629395
    z: 0.0
  orientation: 
    x: 0.0
    y: 0.0
    z: -0.0431109853089
    w: 0.999070286751
---
header: 
  seq: 12913
  stamp: 
    secs: 1648516587
    nsecs: 186860091
  frame_id: "map"
pose: 
  position: 
    x: -0.408390045166
    y: -1.27339172363
    z: 0.0
  orientation: 
    x: 0.0
    y: 0.0
    z: -0.0407508127391
    w: 0.99916934967
---
header: 
  seq: 12914
  stamp: 
    secs: 1648516587
    nsecs: 307281791
  frame_id: "map"
pose: 
  position: 
    x: -0.406192779541
    y: -1.2739982605
    z: 0.0
  orientation: 
    x: 0.0
    y: 0.0
    z: -0.0315617695451
    w: 0.999501824379
---
header: 
  seq: 12915
  stamp: 
    secs: 1648516587
    nsecs: 346830205
  frame_id: "map"
pose: 
  position: 
    x: -0.40544128418
    y: -1.2696685791
    z: 0.0
  orientation: 
    x: 0.0
    y: 0.0
    z: -0.028627211228
    w: 0.999590098858
---
header: 
  seq: 12916
  stamp: 
    secs: 1648516587
    nsecs: 426906541
  frame_id: "map"
pose: 
  position: 
    x: -0.402286529541
    y: -1.27289962769
    z: 0.0
  orientation: 
    x: 0.0
    y: 0.0
    z: -0.0232626982033
    w: 0.999729394913
---
header: 
  seq: 12917
  stamp: 
    secs: 1648516587
    nsecs: 520868825
  frame_id: "map"
pose: 
  position: 
    x: -0.405792236328
    y: -1.27098464966
    z: 0.0
  orientation: 
    x: 0.0
    y: 0.0
    z: -0.0177172999829
    w: 0.99984306097
---
header: 
  seq: 12918
  stamp: 
    secs: 1648516587
    nsecs: 587058327
  frame_id: "map"
pose: 
  position: 
    x: -0.410377502441
    y: -1.26886749268
    z: 0.0
  orientation: 
    x: 0.0
    y: 0.0
    z: -0.0139407487586
    w: 0.999902844429
---
header: 
  seq: 12919
  stamp: 
    secs: 1648516587
    nsecs: 626989043
  frame_id: "map"
pose: 
  position: 
    x: -0.40486907959
    y: -1.26876068115
    z: 0.0
  orientation: 
    x: 0.0
    y: 0.0
    z: -0.0107254432514
    w: 0.999942481518
---
header: 
  seq: 12920
  stamp: 
    secs: 1648516587
    nsecs: 721111853
  frame_id: "map"
pose: 
  position: 
    x: -0.390235900879
    y: -1.2712097168
    z: 0.0
  orientation: 
    x: 0.0
    y: 0.0
    z: -0.00152722140774
    w: 0.999998807907
---
header: 
  seq: 12921
  stamp: 
    secs: 1648516587
    nsecs: 787063275
  frame_id: "map"
pose: 
  position: 
    x: -0.412742614746
    y: -1.2618637085
    z: 0.0
  orientation: 
    x: 0.0
    y: 0.0
    z: 0.00245957751758
    w: 0.999996960163
---
header: 
  seq: 12922
  stamp: 
    secs: 1648516587
    nsecs: 867010701
  frame_id: "map"
pose: 
  position: 
    x: -0.396759033203
    y: -1.26612091064
    z: 0.0
  orientation: 
    x: 0.0
    y: 0.0
    z: 0.00451831659302
    w: 0.999989807606
---
header: 
  seq: 12923
  stamp: 
    secs: 1648516587
    nsecs: 906969595
  frame_id: "map"
pose: 
  position: 
    x: -0.398826599121
    y: -1.26778411865
    z: 0.0
  orientation: 
    x: 0.0
    y: 0.0
    z: 0.00420270254835
    w: 0.999991178513
---
header: 
  seq: 12924
  stamp: 
    secs: 1648516588
    nsecs:  13773217
  frame_id: "map"
pose: 
  position: 
    x: -0.40958404541
    y: -1.26526641846
    z: 0.0
  orientation: 
    x: 0.0
    y: 0.0
    z: 0.00339602469467
    w: 0.999994218349
---
header: 
  seq: 12925
  stamp: 
    secs: 1648516588
    nsecs:  66968251
  frame_id: "map"
pose: 
  position: 
    x: -0.414848327637
    y: -1.26264190674
    z: 0.0
  orientation: 
    x: 0.0
    y: 0.0
    z: 0.00430923793465
    w: 0.999990701675
---
header: 
  seq: 12926
  stamp: 
    secs: 1648516588
    nsecs: 147088493
  frame_id: "map"
pose: 
  position: 
    x: -0.404350280762
    y: -1.26500701904
    z: 0.0
  orientation: 
    x: 0.0
    y: 0.0
    z: 0.00627495488152
    w: 0.999980330467
---
header: 
  seq: 12927
  stamp: 
    secs: 1648516588
    nsecs: 201092038
  frame_id: "map"
pose: 
  position: 
    x: -0.400394439697
    y: -1.2685546875
    z: 0.0
  orientation: 
    x: 0.0
    y: 0.0
    z: 0.00907840020955
    w: 0.99995881319
---
header: 
  seq: 12928
  stamp: 
    secs: 1648516588
    nsecs: 306884485
  frame_id: "map"
pose: 
  position: 
    x: -0.399360656738
    y: -1.2640914917
    z: 0.0
  orientation: 
    x: 0.0
    y: 0.0
    z: 0.0134576447308
    w: 0.999909460545
---
header: 
  seq: 12929
  stamp: 
    secs: 1648516588
    nsecs: 346900100
  frame_id: "map"
pose: 
  position: 
    x: -0.393486022949
    y: -1.26550674438
    z: 0.0
  orientation: 
    x: 0.0
    y: 0.0
    z: 0.0146153904498
    w: 0.999893188477
---
header: 
  seq: 12930
  stamp: 
    secs: 1648516588
    nsecs: 440871394
  frame_id: "map"
pose: 
  position: 
    x: -0.406768798828
    y: -1.26442337036
    z: 0.0
  orientation: 
    x: 0.0
    y: 0.0
    z: 0.016050864011
    w: 0.999871194363
---
header: 
  seq: 12931
  stamp: 
    secs: 1648516588
    nsecs: 507158188
  frame_id: "map"
pose: 
  position: 
    x: -0.404457092285
    y: -1.26432800293
    z: 0.0
  orientation: 
    x: 0.0
    y: 0.0
    z: 0.0159528870136
    w: 0.999872744083
---
header: 
  seq: 12932
  stamp: 
    secs: 1648516588
    nsecs: 586864721
  frame_id: "map"
pose: 
  position: 
    x: -0.396270751953
    y: -1.26357269287
    z: 0.0
  orientation: 
    x: 0.0
    y: 0.0
    z: 0.0184451993555
    w: 0.999829888344
---
header: 
  seq: 12933
  stamp: 
    secs: 1648516588
    nsecs: 626826740
  frame_id: "map"
pose: 
  position: 
    x: -0.399272918701
    y: -1.25759124756
    z: 0.0
  orientation: 
    x: 0.0
    y: 0.0
    z: 0.0185962207615
    w: 0.999827086926
---
header: 
  seq: 12934
  stamp: 
    secs: 1648516588
    nsecs: 733588380
  frame_id: "map"
pose: 
  position: 
    x: -0.399154663086
    y: -1.26500701904
    z: 0.0
  orientation: 
    x: 0.0
    y: 0.0
    z: 0.0199010763317
    w: 0.999801933765
---
header: 
  seq: 12935
  stamp: 
    secs: 1648516588
    nsecs: 786817321
  frame_id: "map"
pose: 
  position: 
    x: -0.40323638916
    y: -1.25471115112
    z: 0.0
  orientation: 
    x: 0.0
    y: 0.0
    z: 0.0188049245626
    w: 0.999823153019
---
header: 
  seq: 12936
  stamp: 
    secs: 1648516588
    nsecs: 866950063
  frame_id: "map"
pose: 
  position: 
    x: -0.398696899414
    y: -1.25113296509
    z: 0.0
  orientation: 
    x: 0.0
    y: 0.0
    z: 0.0183649510145
    w: 0.999831318855
---
header: 
  seq: 12937
  stamp: 
    secs: 1648516588
    nsecs: 920933712
  frame_id: "map"
pose: 
  position: 
    x: -0.394355773926
    y: -1.25244903564
    z: 0.0
  orientation: 
    x: 0.0
    y: 0.0
    z: 0.0194674283266
    w: 0.99981045723
---
header: 
  seq: 12938
  stamp: 
    secs: 1648516589
    nsecs:  26985020
  frame_id: "map"
pose: 
  position: 
    x: -0.391937255859
    y: -1.25291824341
    z: 0.0
  orientation: 
    x: 0.0
    y: 0.0
    z: 0.0192960556597
    w: 0.99981379509
---
header: 
  seq: 12939
  stamp: 
    secs: 1648516589
    nsecs:  66904538
  frame_id: "map"
pose: 
  position: 
    x: -0.385635375977
    y: -1.25204849243
    z: 0.0
  orientation: 
    x: 0.0
    y: 0.0
    z: 0.0199334807694
    w: 0.999801278114
---
header: 
  seq: 12940
  stamp: 
    secs: 1648516589
    nsecs: 161079222
  frame_id: "map"
pose: 
  position: 
    x: -0.385654449463
    y: -1.24634552002
    z: 0.0
  orientation: 
    x: 0.0
    y: 0.0
    z: 0.0205175522715
    w: 0.999789476395
---
header: 
  seq: 12941
  stamp: 
    secs: 1648516589
    nsecs: 226893190
  frame_id: "map"
pose: 
  position: 
    x: -0.38875579834
    y: -1.24876785278
    z: 0.0
  orientation: 
    x: 0.0
    y: 0.0
    z: 0.0223751533777
    w: 0.999749660492
---
header: 
  seq: 12942
  stamp: 
    secs: 1648516589
    nsecs: 307247291
  frame_id: "map"
pose: 
  position: 
    x: -0.391574859619
    y: -1.24797821045
    z: 0.0
  orientation: 
    x: 0.0
    y: 0.0
    z: 0.0226272717118
    w: 0.999743938446
---
header: 
  seq: 12943
  stamp: 
    secs: 1648516589
    nsecs: 346877166
  frame_id: "map"
pose: 
  position: 
    x: -0.393180847168
    y: -1.23916244507
    z: 0.0
  orientation: 
    x: 0.0
    y: 0.0
    z: 0.0215936694294
    w: 0.99976682663
---
header: 
  seq: 12944
  stamp: 
    secs: 1648516589
    nsecs: 453635002
  frame_id: "map"
pose: 
  position: 
    x: -0.379703521729
    y: -1.24240875244
    z: 0.0
  orientation: 
    x: 0.0
    y: 0.0
    z: 0.0210002679378
    w: 0.999779462814
---
header: 
  seq: 12945
  stamp: 
    secs: 1648516589
    nsecs: 506907433
  frame_id: "map"
pose: 
  position: 
    x: -0.375797271729
    y: -1.24225616455
    z: 0.0
  orientation: 
    x: 0.0
    y: 0.0
    z: 0.021703613922
    w: 0.999764442444
---
header: 
  seq: 12946
  stamp: 
    secs: 1648516589
    nsecs: 586886941
  frame_id: "map"
pose: 
  position: 
    x: -0.37984085083
    y: -1.2361831665
    z: 0.0
  orientation: 
    x: 0.0
    y: 0.0
    z: 0.0232749097049
    w: 0.999729096889
---
header: 
  seq: 12947
  stamp: 
    secs: 1648516589
    nsecs: 640895225
  frame_id: "map"
pose: 
  position: 
    x: -0.377841949463
    y: -1.23560714722
    z: 0.0
  orientation: 
    x: 0.0
    y: 0.0
    z: 0.0245480220765
    w: 0.999698638916
---
header: 
  seq: 12948
  stamp: 
    secs: 1648516589
    nsecs: 707170508
  frame_id: "map"
pose: 
  position: 
    x: -0.377796173096
    y: -1.23503875732
    z: 0.0
  orientation: 
    x: 0.0
    y: 0.0
    z: 0.0273238327354
    w: 0.999626636505
---
header: 
  seq: 12949
  stamp: 
    secs: 1648516589
    nsecs: 786965167
  frame_id: "map"
pose: 
  position: 
    x: -0.375267028809
    y: -1.23113632202
    z: 0.0
  orientation: 
    x: 0.0
    y: 0.0
    z: 0.029713248834
    w: 0.999558448792
---
header: 
  seq: 12950
  stamp: 
    secs: 1648516589
    nsecs: 880975888
  frame_id: "map"
pose: 
  position: 
    x: -0.370643615723
    y: -1.22278213501
    z: 0.0
  orientation: 
    x: 0.0
    y: 0.0
    z: 0.0302251335233
    w: 0.999543070793
---
header: 
  seq: 12951
  stamp: 
    secs: 1648516589
    nsecs: 946973246
  frame_id: "map"
pose: 
  position: 
    x: -0.366539001465
    y: -1.22730255127
    z: 0.0
  orientation: 
    x: 0.0
    y: 0.0
    z: 0.0307183470577
    w: 0.999528050423
---
header: 
  seq: 12952
  stamp: 
    secs: 1648516589
    nsecs: 986889118
  frame_id: "map"
pose: 
  position: 
    x: -0.368228912354
    y: -1.22537994385
    z: 0.0
  orientation: 
    x: 0.0
    y: 0.0
    z: 0.0315958969295
    w: 0.999500751495
---
header: 
  seq: 12953
  stamp: 
    secs: 1648516590
    nsecs:  66975295
  frame_id: "map"
pose: 
  position: 
    x: -0.368907928467
    y: -1.21922683716
    z: 0.0
  orientation: 
    x: 0.0
    y: 0.0
    z: 0.0325151272118
    w: 0.999471247196
---
header: 
  seq: 12954
  stamp: 
    secs: 1648516590
    nsecs: 173691201
  frame_id: "map"
pose: 
  position: 
    x: -0.368446350098
    y: -1.22402954102
    z: 0.0
  orientation: 
    x: 0.0
    y: 0.0
    z: 0.0373553670943
    w: 0.99930202961
---
header: 
  seq: 12955
  stamp: 
    secs: 1648516590
    nsecs: 226950819
  frame_id: "map"
pose: 
  position: 
    x: -0.366847991943
    y: -1.21366119385
    z: 0.0
  orientation: 
    x: 0.0
    y: 0.0
    z: 0.0367416143417
    w: 0.999324798584
---
header: 
  seq: 12956
  stamp: 
    secs: 1648516590
    nsecs: 306986681
  frame_id: "map"
pose: 
  position: 
    x: -0.371395111084
    y: -1.21153640747
    z: 0.0
  orientation: 
    x: 0.0
    y: 0.0
    z: 0.0383900329471
    w: 0.999262809753
---
header: 
  seq: 12957
  stamp: 
    secs: 1648516590
    nsecs: 361031893
  frame_id: "map"
pose: 
  position: 
    x: -0.371940612793
    y: -1.21175384521
    z: 0.0
  orientation: 
    x: 0.0
    y: 0.0
    z: 0.0382435843349
    w: 0.999268472195
---
header: 
  seq: 12958
  stamp: 
    secs: 1648516590
    nsecs: 427029719
  frame_id: "map"
pose: 
  position: 
    x: -0.367362976074
    y: -1.21012115479
    z: 0.0
  orientation: 
    x: 0.0
    y: 0.0
    z: 0.0382203310728
    w: 0.99926930666
---
header: 
  seq: 12959
  stamp: 
    secs: 1648516590
    nsecs: 507369184
  frame_id: "map"
pose: 
  position: 
    x: -0.365131378174
    y: -1.20347213745
    z: 0.0
  orientation: 
    x: 0.0
    y: 0.0
    z: 0.0378776080906
    w: 0.999282360077
---
header: 
  seq: 12960
  stamp: 
    secs: 1648516590
    nsecs: 601217034
  frame_id: "map"
pose: 
  position: 
    x: -0.362445831299
    y: -1.20112228394
    z: 0.0
  orientation: 
    x: 0.0
    y: 0.0
    z: 0.0385418199003
    w: 0.999256968498
---
header: 
  seq: 12961
  stamp: 
    secs: 1648516590
    nsecs: 667150224
  frame_id: "map"
pose: 
  position: 
    x: -0.364524841309
    y: -1.19952011108
    z: 0.0
  orientation: 
    x: 0.0
    y: 0.0
    z: 0.0413571298122
    w: 0.999144434929
---
header: 
  seq: 12962
  stamp: 
    secs: 1648516590
    nsecs: 707190265
  frame_id: "map"
pose: 
  position: 
    x: -0.360473632812
    y: -1.20087051392
    z: 0.0
  orientation: 
    x: 0.0
    y: 0.0
    z: 0.0417274534702
    w: 0.999129056931
---
header: 
  seq: 12963
  stamp: 
    secs: 1648516590
    nsecs: 787143885
  frame_id: "map"
pose: 
  position: 
    x: -0.366733551025
    y: -1.2018661499
    z: 0.0
  orientation: 
    x: 0.0
    y: 0.0
    z: 0.0455135516822
    w: 0.998963713646
---
header: 
  seq: 12964
  stamp: 
    secs: 1648516590
    nsecs: 881188512
  frame_id: "map"
pose: 
  position: 
    x: -0.359954833984
    y: -1.1911239624
    z: 0.0
  orientation: 
    x: 0.0
    y: 0.0
    z: 0.0467243380845
    w: 0.998907804489
---
header: 
  seq: 12965
  stamp: 
    secs: 1648516590
    nsecs: 947205558
  frame_id: "map"
pose: 
  position: 
    x: -0.363990783691
    y: -1.18190765381
    z: 0.0
  orientation: 
    x: 0.0
    y: 0.0
    z: 0.04872424528
    w: 0.998812258244
---
header: 
  seq: 12966
  stamp: 
    secs: 1648516590
    nsecs: 987227005
  frame_id: "map"
pose: 
  position: 
    x: -0.350578308105
    y: -1.18873596191
    z: 0.0
  orientation: 
    x: 0.0
    y: 0.0
    z: 0.051596224308
    w: 0.998668015003
---
header: 
  seq: 12967
  stamp: 
    secs: 1648516591
    nsecs:  81312361
  frame_id: "map"
pose: 
  position: 
    x: -0.356693267822
    y: -1.18181228638
    z: 0.0
  orientation: 
    x: 0.0
    y: 0.0
    z: 0.0522857233882
    w: 0.998632192612
---
header: 
  seq: 12968
  stamp: 
    secs: 1648516591
    nsecs: 147099295
  frame_id: "map"
pose: 
  position: 
    x: -0.351821899414
    y: -1.19244003296
    z: 0.0
  orientation: 
    x: 0.0
    y: 0.0
    z: 0.0536095052958
    w: 0.99856197834
---
header: 
  seq: 12969
  stamp: 
    secs: 1648516591
    nsecs: 227096405
  frame_id: "map"
pose: 
  position: 
    x: -0.351898193359
    y: -1.18676757812
    z: 0.0
  orientation: 
    x: 0.0
    y: 0.0
    z: 0.0521017722785
    w: 0.99864178896
---
header: 
  seq: 12970
  stamp: 
    secs: 1648516591
    nsecs: 267056756
  frame_id: "map"
pose: 
  position: 
    x: -0.350185394287
    y: -1.17541122437
    z: 0.0
  orientation: 
    x: 0.0
    y: 0.0
    z: 0.0468749180436
    w: 0.998900771141
---
header: 
  seq: 12971
  stamp: 
    secs: 1648516591
    nsecs: 373741046
  frame_id: "map"
pose: 
  position: 
    x: -0.348854064941
    y: -1.17455291748
    z: 0.0
  orientation: 
    x: 0.0
    y: 0.0
    z: 0.046162288636
    w: 0.998933970928
---
header: 
  seq: 12972
  stamp: 
    secs: 1648516591
    nsecs: 427018372
  frame_id: "map"
pose: 
  position: 
    x: -0.343593597412
    y: -1.18756103516
    z: 0.0
  orientation: 
    x: 0.0
    y: 0.0
    z: 0.0480962656438
    w: 0.998842716217
---
header: 
  seq: 12973
  stamp: 
    secs: 1648516591
    nsecs: 506913031
  frame_id: "map"
pose: 
  position: 
    x: -0.344638824463
    y: -1.17045974731
    z: 0.0
  orientation: 
    x: 0.0
    y: 0.0
    z: 0.0453745573759
    w: 0.998970031738
---
header: 
  seq: 12974
  stamp: 
    secs: 1648516591
    nsecs: 561179394
  frame_id: "map"
pose: 
  position: 
    x: -0.346641540527
    y: -1.1646270752
    z: 0.0
  orientation: 
    x: 0.0
    y: 0.0
    z: 0.0450994223356
    w: 0.998982489109
---
header: 
  seq: 12975
  stamp: 
    secs: 1648516591
    nsecs: 626921952
  frame_id: "map"
pose: 
  position: 
    x: -0.343662261963
    y: -1.16557312012
    z: 0.0
  orientation: 
    x: 0.0
    y: 0.0
    z: 0.0456388145685
    w: 0.9989579916
---
header: 
  seq: 12976
  stamp: 
    secs: 1648516591
    nsecs: 707114068
  frame_id: "map"
pose: 
  position: 
    x: -0.341194152832
    y: -1.17547225952
    z: 0.0
  orientation: 
    x: 0.0
    y: 0.0
    z: 0.0505999326706
    w: 0.998718976974
---
header: 
  seq: 12977
  stamp: 
    secs: 1648516591
    nsecs: 746841444
  frame_id: "map"
pose: 
  position: 
    x: -0.345436096191
    y: -1.15242767334
    z: 0.0
  orientation: 
    x: 0.0
    y: 0.0
    z: 0.0475581362844
    w: 0.998868465424
---
header: 
  seq: 12978
  stamp: 
    secs: 1648516591
    nsecs: 853589069
  frame_id: "map"
pose: 
  position: 
    x: -0.343902587891
    y: -1.14496994019
    z: 0.0
  orientation: 
    x: 0.0
    y: 0.0
    z: 0.0517891272902
    w: 0.998658061028
---
header: 
  seq: 12979
  stamp: 
    secs: 1648516591
    nsecs: 906893166
  frame_id: "map"
pose: 
  position: 
    x: -0.345184326172
    y: -1.13974380493
    z: 0.0
  orientation: 
    x: 0.0
    y: 0.0
    z: 0.053106918931
    w: 0.998588860035
---
header: 
  seq: 12980
  stamp: 
    secs: 1648516591
    nsecs: 987014550
  frame_id: "map"
pose: 
  position: 
    x: -0.337024688721
    y: -1.14547348022
    z: 0.0
  orientation: 
    x: 0.0
    y: 0.0
    z: 0.0565213412046
    w: 0.998401403427
---
header: 
  seq: 12981
  stamp: 
    secs: 1648516592
    nsecs:  41111325
  frame_id: "map"
pose: 
  position: 
    x: -0.34065246582
    y: -1.13222122192
    z: 0.0
  orientation: 
    x: 0.0
    y: 0.0
    z: 0.0557761602104
    w: 0.998443305492
---
header: 
  seq: 12982
  stamp: 
    secs: 1648516592
    nsecs: 106983365
  frame_id: "map"
pose: 
  position: 
    x: -0.337253570557
    y: -1.13941574097
    z: 0.0
  orientation: 
    x: 0.0
    y: 0.0
    z: 0.0608253180981
    w: 0.998148441315
---
header: 
  seq: 12983
  stamp: 
    secs: 1648516592
    nsecs: 186902659
  frame_id: "map"
pose: 
  position: 
    x: -0.335693359375
    y: -1.14367294312
    z: 0.0
  orientation: 
    x: 0.0
    y: 0.0
    z: 0.0621670633554
    w: 0.998065769672
---
header: 
  seq: 12984
  stamp: 
    secs: 1648516592
    nsecs: 226844468
  frame_id: "map"
pose: 
  position: 
    x: -0.331642150879
    y: -1.14813995361
    z: 0.0
  orientation: 
    x: 0.0
    y: 0.0
    z: 0.0618135295808
    w: 0.998087704182
---
header: 
  seq: 12985
  stamp: 
    secs: 1648516592
    nsecs: 346923545
  frame_id: "map"
pose: 
  position: 
    x: -0.335105895996
    y: -1.13080215454
    z: 0.0
  orientation: 
    x: 0.0
    y: 0.0
    z: 0.0606559664011
    w: 0.998158752918
---
header: 
  seq: 12986
  stamp: 
    secs: 1648516592
    nsecs: 386906969
  frame_id: "map"
pose: 
  position: 
    x: -0.339981079102
    y: -1.1259727478
    z: 0.0
  orientation: 
    x: 0.0
    y: 0.0
    z: 0.0593644939363
    w: 0.998236358166
---
header: 
  seq: 12987
  stamp: 
    secs: 1648516592
    nsecs: 466893974
  frame_id: "map"
pose: 
  position: 
    x: -0.334831237793
    y: -1.13600921631
    z: 0.0
  orientation: 
    x: 0.0
    y: 0.0
    z: 0.0590520426631
    w: 0.99825489521
---
header: 
  seq: 12988
  stamp: 
    secs: 1648516592
    nsecs: 520928975
  frame_id: "map"
pose: 
  position: 
    x: -0.332290649414
    y: -1.13433074951
    z: 0.0
  orientation: 
    x: 0.0
    y: 0.0
    z: 0.0587798319757
    w: 0.998270988464
---
header: 
  seq: 12989
  stamp: 
    secs: 1648516592
    nsecs: 586878101
  frame_id: "map"
pose: 
  position: 
    x: -0.337944030762
    y: -1.11455535889
    z: 0.0
  orientation: 
    x: 0.0
    y: 0.0
    z: 0.0580716617405
    w: 0.998312413692
---
header: 
  seq: 12990
  stamp: 
    secs: 1648516592
    nsecs: 666811667
  frame_id: "map"
pose: 
  position: 
    x: -0.333236694336
    y: -1.10391998291
    z: 0.0
  orientation: 
    x: 0.0
    y: 0.0
    z: 0.0557921007276
    w: 0.998442411423
---
header: 
  seq: 12991
  stamp: 
    secs: 1648516592
    nsecs: 760867489
  frame_id: "map"
pose: 
  position: 
    x: -0.32865524292
    y: -1.10066986084
    z: 0.0
  orientation: 
    x: 0.0
    y: 0.0
    z: 0.0559117496014
    w: 0.998435735703
---
header: 
  seq: 12992
  stamp: 
    secs: 1648516592
    nsecs: 826904638
  frame_id: "map"
pose: 
  position: 
    x: -0.331901550293
    y: -1.09399414062
    z: 0.0
  orientation: 
    x: 0.0
    y: 0.0
    z: 0.0558280795813
    w: 0.998440384865
---
header: 
  seq: 12993
  stamp: 
    secs: 1648516592
    nsecs: 907237068
  frame_id: "map"
pose: 
  position: 
    x: -0.328689575195
    y: -1.09224700928
    z: 0.0
  orientation: 
    x: 0.0
    y: 0.0
    z: 0.0580098740757
    w: 0.998315989971
---
header: 
  seq: 12994
  stamp: 
    secs: 1648516592
    nsecs: 946903921
  frame_id: "map"
pose: 
  position: 
    x: -0.32710647583
    y: -1.0906791687
    z: 0.0
  orientation: 
    x: 0.0
    y: 0.0
    z: 0.0557408481836
    w: 0.998445272446
---
header: 
  seq: 12995
  stamp: 
    secs: 1648516593
    nsecs:  53654773
  frame_id: "map"
pose: 
  position: 
    x: -0.326469421387
    y: -1.08726119995
    z: 0.0
  orientation: 
    x: 0.0
    y: 0.0
    z: 0.0556384399533
    w: 0.998450994492
---
header: 
  seq: 12996
  stamp: 
    secs: 1648516593
    nsecs: 107007673
  frame_id: "map"
pose: 
  position: 
    x: -0.32398223877
    y: -1.08336639404
    z: 0.0
  orientation: 
    x: 0.0
    y: 0.0
    z: 0.0555218867958
    w: 0.998457491398
---
header: 
  seq: 12997
  stamp: 
    secs: 1648516593
    nsecs: 147011565
  frame_id: "map"
pose: 
  position: 
    x: -0.325756072998
    y: -1.08376312256
    z: 0.0
  orientation: 
    x: 0.0
    y: 0.0
    z: 0.0558845959604
    w: 0.998437225819
---
header: 
  seq: 12998
  stamp: 
    secs: 1648516593
    nsecs: 241056292
  frame_id: "map"
pose: 
  position: 
    x: -0.322067260742
    y: -1.08213043213
    z: 0.0
  orientation: 
    x: 0.0
    y: 0.0
    z: 0.0591888204217
    w: 0.998246788979
---
header: 
  seq: 12999
  stamp: 
    secs: 1648516593
    nsecs: 307271570
  frame_id: "map"
pose: 
  position: 
    x: -0.322109222412
    y: -1.08198547363
    z: 0.0
  orientation: 
    x: 0.0
    y: 0.0
    z: 0.0597243458033
    w: 0.998214900494
---
header: 
  seq: 13000
  stamp: 
    secs: 1648516593
    nsecs: 386959138
  frame_id: "map"
pose: 
  position: 
    x: -0.315494537354
    y: -1.07834243774
    z: 0.0
  orientation: 
    x: 0.0
    y: 0.0
    z: 0.0597752332687
    w: 0.998211860657
---
header: 
  seq: 13001
  stamp: 
    secs: 1648516593
    nsecs: 426843913
  frame_id: "map"
pose: 
  position: 
    x: -0.323768615723
    y: -1.07493591309
    z: 0.0
  orientation: 
    x: 0.0
    y: 0.0
    z: 0.058620877564
    w: 0.998280346394
---
header: 
  seq: 13002
  stamp: 
    secs: 1648516593
    nsecs: 546912781
  frame_id: "map"
pose: 
  position: 
    x: -0.318218231201
    y: -1.07453155518
    z: 0.0
  orientation: 
    x: 0.0
    y: 0.0
    z: 0.058824390173
    w: 0.99826836586
---
header: 
  seq: 13003
  stamp: 
    secs: 1648516593
    nsecs: 586962300
  frame_id: "map"
pose: 
  position: 
    x: -0.316383361816
    y: -1.07022476196
    z: 0.0
  orientation: 
    x: 0.0
    y: 0.0
    z: 0.0592147447169
    w: 0.998245239258
---
header: 
  seq: 13004
  stamp: 
    secs: 1648516593
    nsecs: 666895656
  frame_id: "map"
pose: 
  position: 
    x: -0.316268920898
    y: -1.07035064697
    z: 0.0
  orientation: 
    x: 0.0
    y: 0.0
    z: 0.0595471039414
    w: 0.99822551012
---
header: 
  seq: 13005
  stamp: 
    secs: 1648516593
    nsecs: 720994825
  frame_id: "map"
pose: 
  position: 
    x: -0.318809509277
    y: -1.06671905518
    z: 0.0
  orientation: 
    x: 0.0
    y: 0.0
    z: 0.0612549260259
    w: 0.998122155666
---
header: 
  seq: 13006
  stamp: 
    secs: 1648516593
    nsecs: 826890862
  frame_id: "map"
pose: 
  position: 
    x: -0.317680358887
    y: -1.06409454346
    z: 0.0
  orientation: 
    x: 0.0
    y: 0.0
    z: 0.0625456944108
    w: 0.998042106628
---
header: 
  seq: 13007
  stamp: 
    secs: 1648516593
    nsecs: 866909755
  frame_id: "map"
pose: 
  position: 
    x: -0.316303253174
    y: -1.06438446045
    z: 0.0
  orientation: 
    x: 0.0
    y: 0.0
    z: 0.0629651322961
    w: 0.998015701771
---
header: 
  seq: 13008
  stamp: 
    secs: 1648516593
    nsecs: 960903283
  frame_id: "map"
pose: 
  position: 
    x: -0.311882019043
    y: -1.05950927734
    z: 0.0
  orientation: 
    x: 0.0
    y: 0.0
    z: 0.0616225451231
    w: 0.998099505901
---
header: 
  seq: 13009
  stamp: 
    secs: 1648516594
    nsecs:  26943816
  frame_id: "map"
pose: 
  position: 
    x: -0.313613891602
    y: -1.05723571777
    z: 0.0
  orientation: 
    x: 0.0
    y: 0.0
    z: 0.0636980310082
    w: 0.997969210148
---
header: 
  seq: 13010
  stamp: 
    secs: 1648516594
    nsecs:  66823694
  frame_id: "map"
pose: 
  position: 
    x: -0.314830780029
    y: -1.05409622192
    z: 0.0
  orientation: 
    x: 0.0
    y: 0.0
    z: 0.0651046782732
    w: 0.997878432274
---
header: 
  seq: 13011
  stamp: 
    secs: 1648516594
    nsecs: 146851010
  frame_id: "map"
pose: 
  position: 
    x: -0.310478210449
    y: -1.05073165894
    z: 0.0
  orientation: 
    x: 0.0
    y: 0.0
    z: 0.0658523663878
    w: 0.997829377651
---
header: 
  seq: 13012
  stamp: 
    secs: 1648516594
    nsecs: 240879902
  frame_id: "map"
pose: 
  position: 
    x: -0.310119628906
    y: -1.04647445679
    z: 0.0
  orientation: 
    x: 0.0
    y: 0.0
    z: 0.0688575431705
    w: 0.99762648344
---
header: 
  seq: 13013
  stamp: 
    secs: 1648516594
    nsecs: 306891840
  frame_id: "map"
pose: 
  position: 
    x: -0.307106018066
    y: -1.04354476929
    z: 0.0
  orientation: 
    x: 0.0
    y: 0.0
    z: 0.0697009935975
    w: 0.997567951679
---
header: 
  seq: 13014
  stamp: 
    secs: 1648516594
    nsecs: 346899222
  frame_id: "map"
pose: 
  position: 
    x: -0.30525970459
    y: -1.04337310791
    z: 0.0
  orientation: 
    x: 0.0
    y: 0.0
    z: 0.0715025141835
    w: 0.997440397739
---
header: 
  seq: 13015
  stamp: 
    secs: 1648516594
    nsecs: 441118536
  frame_id: "map"
pose: 
  position: 
    x: -0.308044433594
    y: -1.03868484497
    z: 0.0
  orientation: 
    x: 0.0
    y: 0.0
    z: 0.07344699651
    w: 0.997299134731
---
header: 
  seq: 13016
  stamp: 
    secs: 1648516594
    nsecs: 507343501
  frame_id: "map"
pose: 
  position: 
    x: -0.309490203857
    y: -1.03689193726
    z: 0.0
  orientation: 
    x: 0.0
    y: 0.0
    z: 0.0717902779579
    w: 0.997419774532
---
header: 
  seq: 13017
  stamp: 
    secs: 1648516594
    nsecs: 587017474
  frame_id: "map"
pose: 
  position: 
    x: -0.301929473877
    y: -1.06426239014
    z: 0.0
  orientation: 
    x: 0.0
    y: 0.0
    z: 0.0751749128103
    w: 0.997170388699
---
header: 
  seq: 13018
  stamp: 
    secs: 1648516594
    nsecs: 627029439
  frame_id: "map"
pose: 
  position: 
    x: -0.30228805542
    y: -1.03495407104
    z: 0.0
  orientation: 
    x: 0.0
    y: 0.0
    z: 0.0689514651895
    w: 0.997619986534
---
header: 
  seq: 13019
  stamp: 
    secs: 1648516594
    nsecs: 733723413
  frame_id: "map"
pose: 
  position: 
    x: -0.302345275879
    y: -1.02808761597
    z: 0.0
  orientation: 
    x: 0.0
    y: 0.0
    z: 0.067268230021
    w: 0.997734904289
---
header: 
  seq: 13020
  stamp: 
    secs: 1648516594
    nsecs: 786996882
  frame_id: "map"
pose: 
  position: 
    x: -0.294456481934
    y: -1.03366088867
    z: 0.0
  orientation: 
    x: 0.0
    y: 0.0
    z: 0.0686226338148
    w: 0.997642695904
---
header: 
  seq: 13021
  stamp: 
    secs: 1648516594
    nsecs: 867206442
  frame_id: "map"
pose: 
  position: 
    x: -0.299777984619
    y: -1.02321624756
    z: 0.0
  orientation: 
    x: 0.0
    y: 0.0
    z: 0.0640660226345
    w: 0.997945666313
---
header: 
  seq: 13022
  stamp: 
    secs: 1648516594
    nsecs: 921241078
  frame_id: "map"
pose: 
  position: 
    x: -0.297649383545
    y: -1.02111434937
    z: 0.0
  orientation: 
    x: 0.0
    y: 0.0
    z: 0.0633893609047
    w: 0.997988879681
---
header: 
  seq: 13023
  stamp: 
    secs: 1648516594
    nsecs: 987088845
  frame_id: "map"
pose: 
  position: 
    x: -0.291759490967
    y: -1.02249908447
    z: 0.0
  orientation: 
    x: 0.0
    y: 0.0
    z: 0.0616994574666
    w: 0.998094797134
---
header: 
  seq: 13024
  stamp: 
    secs: 1648516595
    nsecs:  66982615
  frame_id: "map"
pose: 
  position: 
    x: -0.2942237854
    y: -1.01256561279
    z: 0.0
  orientation: 
    x: 0.0
    y: 0.0
    z: 0.0600378215313
    w: 0.998196125031
---
header: 
  seq: 13025
  stamp: 
    secs: 1648516595
    nsecs: 161186302
  frame_id: "map"
pose: 
  position: 
    x: -0.288864135742
    y: -1.01821899414
    z: 0.0
  orientation: 
    x: 0.0
    y: 0.0
    z: 0.0614157617092
    w: 0.998112261295
---
header: 
  seq: 13026
  stamp: 
    secs: 1648516595
    nsecs: 226965420
  frame_id: "map"
pose: 
  position: 
    x: -0.289443969727
    y: -1.01786804199
    z: 0.0
  orientation: 
    x: 0.0
    y: 0.0
    z: 0.06207485497
    w: 0.998071491718
---
header: 
  seq: 13027
  stamp: 
    secs: 1648516595
    nsecs: 266896758
  frame_id: "map"
pose: 
  position: 
    x: -0.294147491455
    y: -1.00838470459
    z: 0.0
  orientation: 
    x: 0.0
    y: 0.0
    z: 0.0616007708013
    w: 0.998100876808
---
header: 
  seq: 13028
  stamp: 
    secs: 1648516595
    nsecs: 346930323
  frame_id: "map"
pose: 
  position: 
    x: -0.291065216064
    y: -1.0030670166
    z: 0.0
  orientation: 
    x: 0.0
    y: 0.0
    z: 0.0620921514928
    w: 0.998070418835
---
header: 
  seq: 13029
  stamp: 
    secs: 1648516595
    nsecs: 440901139
  frame_id: "map"
pose: 
  position: 
    x: -0.291347503662
    y: -1.00131225586
    z: 0.0
  orientation: 
    x: 0.0
    y: 0.0
    z: 0.0635220780969
    w: 0.997980415821
---
header: 
  seq: 13030
  stamp: 
    secs: 1648516595
    nsecs: 506847450
  frame_id: "map"
pose: 
  position: 
    x: -0.287612915039
    y: -0.998924255371
    z: 0.0
  orientation: 
    x: 0.0
    y: 0.0
    z: 0.0659626945853
    w: 0.997822105885
---
header: 
  seq: 13031
  stamp: 
    secs: 1648516595
    nsecs: 546892645
  frame_id: "map"
pose: 
  position: 
    x: -0.287948608398
    y: -0.995872497559
    z: 0.0
  orientation: 
    x: 0.0
    y: 0.0
    z: 0.0659502446651
    w: 0.99782294035
---
header: 
  seq: 13032
  stamp: 
    secs: 1648516595
    nsecs: 640966432
  frame_id: "map"
pose: 
  position: 
    x: -0.288494110107
    y: -0.993350982666
    z: 0.0
  orientation: 
    x: 0.0
    y: 0.0
    z: 0.0647394061089
    w: 0.997902214527
---
header: 
  seq: 13033
  stamp: 
    secs: 1648516595
    nsecs: 707293690
  frame_id: "map"
pose: 
  position: 
    x: -0.287582397461
    y: -0.996170043945
    z: 0.0
  orientation: 
    x: 0.0
    y: 0.0
    z: 0.0663543269038
    w: 0.997796118259
---
header: 
  seq: 13034
  stamp: 
    secs: 1648516595
    nsecs: 786930214
  frame_id: "map"
pose: 
  position: 
    x: -0.285446166992
    y: -0.993183135986
    z: 0.0
  orientation: 
    x: 0.0
    y: 0.0
    z: 0.0669117942452
    w: 0.997758865356
---
header: 
  seq: 13035
  stamp: 
    secs: 1648516595
    nsecs: 826974419
  frame_id: "map"
pose: 
  position: 
    x: -0.286010742188
    y: -0.994686126709
    z: 0.0
  orientation: 
    x: 0.0
    y: 0.0
    z: 0.067708209157
    w: 0.997705161572
---
header: 
  seq: 13036
  stamp: 
    secs: 1648516595
    nsecs: 933694173
  frame_id: "map"
pose: 
  position: 
    x: -0.284275054932
    y: -1.00015258789
    z: 0.0
  orientation: 
    x: 0.0
    y: 0.0
    z: 0.0685700625181
    w: 0.997646331787
---
header: 
  seq: 13037
  stamp: 
    secs: 1648516595
    nsecs: 986929151
  frame_id: "map"
pose: 
  position: 
    x: -0.288379669189
    y: -0.992698669434
    z: 0.0
  orientation: 
    x: 0.0
    y: 0.0
    z: 0.0672234892845
    w: 0.997737944126
---
header: 
  seq: 13038
  stamp: 
    secs: 1648516596
    nsecs:  66929798
  frame_id: "map"
pose: 
  position: 
    x: -0.285968780518
    y: -0.992122650146
    z: 0.0
  orientation: 
    x: 0.0
    y: 0.0
    z: 0.0661014541984
    w: 0.997812926769
---
header: 
  seq: 13039
  stamp: 
    secs: 1648516596
    nsecs: 120905836
  frame_id: "map"
pose: 
  position: 
    x: -0.28784942627
    y: -0.992938995361
    z: 0.0
  orientation: 
    x: 0.0
    y: 0.0
    z: 0.0667184218764
    w: 0.997771859169
---
header: 
  seq: 13040
  stamp: 
    secs: 1648516596
    nsecs: 186913606
  frame_id: "map"
pose: 
  position: 
    x: -0.287246704102
    y: -0.994869232178
    z: 0.0
  orientation: 
    x: 0.0
    y: 0.0
    z: 0.0682432949543
    w: 0.997668683529
---
header: 
  seq: 13041
  stamp: 
    secs: 1648516596
    nsecs: 266872949
  frame_id: "map"
pose: 
  position: 
    x: -0.281139373779
    y: -0.995765686035
    z: 0.0
  orientation: 
    x: 0.0
    y: 0.0
    z: 0.069135800004
    w: 0.99760723114
---
header: 
  seq: 13042
  stamp: 
    secs: 1648516596
    nsecs: 360824805
  frame_id: "map"
pose: 
  position: 
    x: -0.283348083496
    y: -0.994403839111
    z: 0.0
  orientation: 
    x: 0.0
    y: 0.0
    z: 0.068411052227
    w: 0.997657239437
---
header: 
  seq: 13043
  stamp: 
    secs: 1648516596
    nsecs: 426846117
  frame_id: "map"
pose: 
  position: 
    x: -0.278678894043
    y: -1.00026321411
    z: 0.0
  orientation: 
    x: 0.0
    y: 0.0
    z: 0.0694249644876
    w: 0.997587203979
---
header: 
  seq: 13044
  stamp: 
    secs: 1648516596
    nsecs: 466953656
  frame_id: "map"
pose: 
  position: 
    x: -0.282608032227
    y: -1.00262069702
    z: 0.0
  orientation: 
    x: 0.0
    y: 0.0
    z: 0.0697400048375
    w: 0.997565209866
---
header: 
  seq: 13045
  stamp: 
    secs: 1648516596
    nsecs: 546930084
  frame_id: "map"
pose: 
  position: 
    x: -0.282718658447
    y: -1.00092315674
    z: 0.0
  orientation: 
    x: 0.0
    y: 0.0
    z: 0.0667103901505
    w: 0.997772395611
---
header: 
  seq: 13046
  stamp: 
    secs: 1648516596
    nsecs: 640944910
  frame_id: "map"
pose: 
  position: 
    x: -0.284343719482
    y: -1.0082321167
    z: 0.0
  orientation: 
    x: 0.0
    y: 0.0
    z: 0.0594916641712
    w: 0.998228788376
---
header: 
  seq: 13047
  stamp: 
    secs: 1648516596
    nsecs: 706924710
  frame_id: "map"
pose: 
  position: 
    x: -0.281730651855
    y: -1.02039718628
    z: 0.0
  orientation: 
    x: 0.0
    y: 0.0
    z: 0.0482046976686
    w: 0.998837471008
---
header: 
  seq: 13048
  stamp: 
    secs: 1648516596
    nsecs: 746899382
  frame_id: "map"
pose: 
  position: 
    x: -0.282035827637
    y: -1.01744842529
    z: 0.0
  orientation: 
    x: 0.0
    y: 0.0
    z: 0.0408545434475
    w: 0.999165117741
---
header: 
  seq: 13049
  stamp: 
    secs: 1648516596
    nsecs: 841036764
  frame_id: "map"
pose: 
  position: 
    x: -0.281547546387
    y: -1.01052093506
    z: 0.0
  orientation: 
    x: 0.0
    y: 0.0
    z: 0.019283015281
    w: 0.999814033508
---
header: 
  seq: 13050
  stamp: 
    secs: 1648516596
    nsecs: 907319488
  frame_id: "map"
pose: 
  position: 
    x: -0.282230377197
    y: -1.01565933228
    z: 0.0
  orientation: 
    x: 0.0
    y: 0.0
    z: 0.0055382126011
    w: 0.999984681606
---
header: 
  seq: 13051
  stamp: 
    secs: 1648516596
    nsecs: 986946479
  frame_id: "map"
pose: 
  position: 
    x: -0.277709960938
    y: -1.02138137817
    z: 0.0
  orientation: 
    x: 0.0
    y: 0.0
    z: -0.012121531181
    w: 0.999926507473
---
header: 
  seq: 13052
  stamp: 
    secs: 1648516597
    nsecs:  27047352
  frame_id: "map"
pose: 
  position: 
    x: -0.272773742676
    y: -1.02169799805
    z: 0.0
  orientation: 
    x: 0.0
    y: 0.0
    z: -0.0212845541537
    w: 0.999773442745
---
header: 
  seq: 13053
  stamp: 
    secs: 1648516597
    nsecs: 133944139
  frame_id: "map"
pose: 
  position: 
    x: -0.271312713623
    y: -1.02606964111
    z: 0.0
  orientation: 
    x: 0.0
    y: 0.0
    z: -0.0433518029749
    w: 0.999059855938
---
header: 
  seq: 13054
  stamp: 
    secs: 1648516597
    nsecs: 187154948
  frame_id: "map"
pose: 
  position: 
    x: -0.283973693848
    y: -1.01844024658
    z: 0.0
  orientation: 
    x: 0.0
    y: 0.0
    z: -0.05354623124
    w: 0.998565375805
---
header: 
  seq: 13055
  stamp: 
    secs: 1648516597
    nsecs: 267029392
  frame_id: "map"
pose: 
  position: 
    x: -0.271129608154
    y: -1.02997970581
    z: 0.0
  orientation: 
    x: 0.0
    y: 0.0
    z: -0.0686704590917
    w: 0.997639417648
---
header: 
  seq: 13056
  stamp: 
    secs: 1648516597
    nsecs: 321318459
  frame_id: "map"
pose: 
  position: 
    x: -0.271842956543
    y: -1.03050231934
    z: 0.0
  orientation: 
    x: 0.0
    y: 0.0
    z: -0.076598316431
    w: 0.997062027454
---
header: 
  seq: 13057
  stamp: 
    secs: 1648516597
    nsecs: 387218048
  frame_id: "map"
pose: 
  position: 
    x: -0.264804840088
    y: -1.02962112427
    z: 0.0
  orientation: 
    x: 0.0
    y: 0.0
    z: -0.0815380886197
    w: 0.996670246124
---
header: 
  seq: 13058
  stamp: 
    secs: 1648516597
    nsecs: 467277185
  frame_id: "map"
pose: 
  position: 
    x: -0.27027130127
    y: -1.02593994141
    z: 0.0
  orientation: 
    x: 0.0
    y: 0.0
    z: -0.0860841721296
    w: 0.996287882328
---
header: 
  seq: 13059
  stamp: 
    secs: 1648516597
    nsecs: 561433472
  frame_id: "map"
pose: 
  position: 
    x: -0.270534515381
    y: -1.02962112427
    z: 0.0
  orientation: 
    x: 0.0
    y: 0.0
    z: -0.0896473303437
    w: 0.995973587036
---
header: 
  seq: 13060
  stamp: 
    secs: 1648516597
    nsecs: 627267121
  frame_id: "map"
pose: 
  position: 
    x: -0.27502822876
    y: -1.0260848999
    z: 0.0
  orientation: 
    x: 0.0
    y: 0.0
    z: -0.0901381447911
    w: 0.995929300785
---
header: 
  seq: 13061
  stamp: 
    secs: 1648516597
    nsecs: 667280439
  frame_id: "map"
pose: 
  position: 
    x: -0.267059326172
    y: -1.03075027466
    z: 0.0
  orientation: 
    x: 0.0
    y: 0.0
    z: -0.0907770991325
    w: 0.995871245861
---
header: 
  seq: 13062
  stamp: 
    secs: 1648516597
    nsecs: 747183686
  frame_id: "map"
pose: 
  position: 
    x: -0.283313751221
    y: -1.02116775513
    z: 0.0
  orientation: 
    x: 0.0
    y: 0.0
    z: -0.0909309536219
    w: 0.995857179165
---
header: 
  seq: 13063
  stamp: 
    secs: 1648516597
    nsecs: 841324349
  frame_id: "map"
pose: 
  position: 
    x: -0.284187316895
    y: -1.02570724487
    z: 0.0
  orientation: 
    x: 0.0
    y: 0.0
    z: -0.0908051207662
    w: 0.995868682861
---
header: 
  seq: 13064
  stamp: 
    secs: 1648516597
    nsecs: 907243052
  frame_id: "map"
pose: 
  position: 
    x: -0.279411315918
    y: -1.03018951416
    z: 0.0
  orientation: 
    x: 0.0
    y: 0.0
    z: -0.0902326479554
    w: 0.995920717716
---
header: 
  seq: 13065
  stamp: 
    secs: 1648516597
    nsecs: 947385071
  frame_id: "map"
pose: 
  position: 
    x: -0.293354034424
    y: -1.01085281372
    z: 0.0
  orientation: 
    x: 0.0
    y: 0.0
    z: -0.0913241356611
    w: 0.995821237564
---
header: 
  seq: 13066
  stamp: 
    secs: 1648516598
    nsecs:  41385000
  frame_id: "map"
pose: 
  position: 
    x: -0.293922424316
    y: -1.02143096924
    z: 0.0
  orientation: 
    x: 0.0
    y: 0.0
    z: -0.0922103971243
    w: 0.995739519596
---
header: 
  seq: 13067
  stamp: 
    secs: 1648516598
    nsecs: 107571106
  frame_id: "map"
pose: 
  position: 
    x: -0.27465057373
    y: -1.02931213379
    z: 0.0
  orientation: 
    x: 0.0
    y: 0.0
    z: -0.094529569149
    w: 0.995522081852
---
header: 
  seq: 13068
  stamp: 
    secs: 1648516598
    nsecs: 187234606
  frame_id: "map"
pose: 
  position: 
    x: -0.293869018555
    y: -1.01217269897
    z: 0.0
  orientation: 
    x: 0.0
    y: 0.0
    z: -0.0962521210313
    w: 0.995356976986
---
header: 
  seq: 13069
  stamp: 
    secs: 1648516598
    nsecs: 227181567
  frame_id: "map"
pose: 
  position: 
    x: -0.291027069092
    y: -1.02558517456
    z: 0.0
  orientation: 
    x: 0.0
    y: 0.0
    z: -0.0956479087472
    w: 0.995415210724
---
header: 
  seq: 13070
  stamp: 
    secs: 1648516598
    nsecs: 347277354
  frame_id: "map"
pose: 
  position: 
    x: -0.27986907959
    y: -1.01821517944
    z: 0.0
  orientation: 
    x: 0.0
    y: 0.0
    z: -0.103936880827
    w: 0.994583904743
---
header: 
  seq: 13071
  stamp: 
    secs: 1648516598
    nsecs: 387298953
  frame_id: "map"
pose: 
  position: 
    x: -0.282279968262
    y: -1.02415847778
    z: 0.0
  orientation: 
    x: 0.0
    y: 0.0
    z: -0.104910716414
    w: 0.994481623173
---
header: 
  seq: 13072
  stamp: 
    secs: 1648516598
    nsecs: 467207981
  frame_id: "map"
pose: 
  position: 
    x: -0.285530090332
    y: -1.02034378052
    z: 0.0
  orientation: 
    x: 0.0
    y: 0.0
    z: -0.11186042428
    w: 0.993723928928
---
header: 
  seq: 13073
  stamp: 
    secs: 1648516598
    nsecs: 561416195
  frame_id: "map"
pose: 
  position: 
    x: -0.278633117676
    y: -1.02754974365
    z: 0.0
  orientation: 
    x: 0.0
    y: 0.0
    z: -0.117850825191
    w: 0.993031322956
---
header: 
  seq: 13074
  stamp: 
    secs: 1648516598
    nsecs: 627149164
  frame_id: "map"
pose: 
  position: 
    x: -0.285827636719
    y: -1.01080322266
    z: 0.0
  orientation: 
    x: 0.0
    y: 0.0
    z: -0.124455355108
    w: 0.99222522974
---
header: 
  seq: 13075
  stamp: 
    secs: 1648516598
    nsecs: 667160086
  frame_id: "map"
pose: 
  position: 
    x: -0.285377502441
    y: -1.01061248779
    z: 0.0
  orientation: 
    x: 0.0
    y: 0.0
    z: -0.12760694325
    w: 0.991824805737
---
header: 
  seq: 13076
  stamp: 
    secs: 1648516598
    nsecs: 761351112
  frame_id: "map"
pose: 
  position: 
    x: -0.277111053467
    y: -1.02902984619
    z: 0.0
  orientation: 
    x: 0.0
    y: 0.0
    z: -0.134965837002
    w: 0.990850269794
---
header: 
  seq: 13077
  stamp: 
    secs: 1648516598
    nsecs: 827183511
  frame_id: "map"
pose: 
  position: 
    x: -0.277011871338
    y: -1.019947052
    z: 0.0
  orientation: 
    x: 0.0
    y: 0.0
    z: -0.138962566853
    w: 0.990297615528
---
header: 
  seq: 13078
  stamp: 
    secs: 1648516598
    nsecs: 907472444
  frame_id: "map"
pose: 
  position: 
    x: -0.275798797607
    y: -1.02039718628
    z: 0.0
  orientation: 
    x: 0.0
    y: 0.0
    z: -0.139108017087
    w: 0.99027723074
---
header: 
  seq: 13079
  stamp: 
    secs: 1648516598
    nsecs: 947258516
  frame_id: "map"
pose: 
  position: 
    x: -0.273193359375
    y: -1.02048110962
    z: 0.0
  orientation: 
    x: 0.0
    y: 0.0
    z: -0.139296412468
    w: 0.990250706673
---
header: 
  seq: 13080
  stamp: 
    secs: 1648516599
    nsecs:  67179506
  frame_id: "map"
pose: 
  position: 
    x: -0.279960632324
    y: -1.01609802246
    z: 0.0
  orientation: 
    x: 0.0
    y: 0.0
    z: -0.139126196504
    w: 0.99027466774
---
header: 
  seq: 13081
  stamp: 
    secs: 1648516599
    nsecs: 107233657
  frame_id: "map"
pose: 
  position: 
    x: -0.274223327637
    y: -1.02927398682
    z: 0.0
  orientation: 
    x: 0.0
    y: 0.0
    z: -0.139395102859
    w: 0.99023681879
---
header: 
  seq: 13082
  stamp: 
    secs: 1648516599
    nsecs: 187175809
  frame_id: "map"
pose: 
  position: 
    x: -0.274864196777
    y: -1.01298904419
    z: 0.0
  orientation: 
    x: 0.0
    y: 0.0
    z: -0.14418515563
    w: 0.989550709724
---
header: 
  seq: 13083
  stamp: 
    secs: 1648516599
    nsecs: 281233863
  frame_id: "map"
pose: 
  position: 
    x: -0.279293060303
    y: -1.01171875
    z: 0.0
  orientation: 
    x: 0.0
    y: 0.0
    z: -0.148105591536
    w: 0.988971531391
---
header: 
  seq: 13084
  stamp: 
    secs: 1648516599
    nsecs: 347131887
  frame_id: "map"
pose: 
  position: 
    x: -0.262268066406
    y: -1.0343208313
    z: 0.0
  orientation: 
    x: 0.0
    y: 0.0
    z: -0.149999648333
    w: 0.988686025143
---
header: 
  seq: 13085
  stamp: 
    secs: 1648516599
    nsecs: 387174684
  frame_id: "map"
pose: 
  position: 
    x: -0.267154693604
    y: -1.03444671631
    z: 0.0
  orientation: 
    x: 0.0
    y: 0.0
    z: -0.154078692198
    w: 0.988058567047
---
header: 
  seq: 13086
  stamp: 
    secs: 1648516599
    nsecs: 481306853
  frame_id: "map"
pose: 
  position: 
    x: -0.264976501465
    y: -1.02878952026
    z: 0.0
  orientation: 
    x: 0.0
    y: 0.0
    z: -0.163946926594
    w: 0.98646914959
---
header: 
  seq: 13087
  stamp: 
    secs: 1648516599
    nsecs: 547098781
  frame_id: "map"
pose: 
  position: 
    x: -0.276996612549
    y: -1.01882171631
    z: 0.0
  orientation: 
    x: 0.0
    y: 0.0
    z: -0.170678734779
    w: 0.985326707363
---
header: 
  seq: 13088
  stamp: 
    secs: 1648516599
    nsecs: 627153957
  frame_id: "map"
pose: 
  position: 
    x: -0.279525756836
    y: -1.01309585571
    z: 0.0
  orientation: 
    x: 0.0
    y: 0.0
    z: -0.179714918137
    w: 0.983718752861
---
header: 
  seq: 13089
  stamp: 
    secs: 1648516599
    nsecs: 667170399
  frame_id: "map"
pose: 
  position: 
    x: -0.276584625244
    y: -1.01601791382
    z: 0.0
  orientation: 
    x: 0.0
    y: 0.0
    z: -0.184007555246
    w: 0.982924818993
---
header: 
  seq: 13090
  stamp: 
    secs: 1648516599
    nsecs: 787175140
  frame_id: "map"
pose: 
  position: 
    x: -0.27906036377
    y: -1.00517272949
    z: 0.0
  orientation: 
    x: 0.0
    y: 0.0
    z: -0.197153255343
    w: 0.980372667313
---
header: 
  seq: 13091
  stamp: 
    secs: 1648516599
    nsecs: 827220750
  frame_id: "map"
pose: 
  position: 
    x: -0.278266906738
    y: -1.01556777954
    z: 0.0
  orientation: 
    x: 0.0
    y: 0.0
    z: -0.201248973608
    w: 0.979540109634
---
header: 
  seq: 13092
  stamp: 
    secs: 1648516599
    nsecs: 907176392
  frame_id: "map"
pose: 
  position: 
    x: -0.266014099121
    y: -1.02447128296
    z: 0.0
  orientation: 
    x: 0.0
    y: 0.0
    z: -0.208158805966
    w: 0.978095054626
---
header: 
  seq: 13093
  stamp: 
    secs: 1648516599
    nsecs: 961399258
  frame_id: "map"
pose: 
  position: 
    x: -0.279674530029
    y: -1.00461196899
    z: 0.0
  orientation: 
    x: 0.0
    y: 0.0
    z: -0.212780505419
    w: 0.977100014687
---
header: 
  seq: 13094
  stamp: 
    secs: 1648516600
    nsecs:  67132364
  frame_id: "map"
pose: 
  position: 
    x: -0.273044586182
    y: -1.02453231812
    z: 0.0
  orientation: 
    x: 0.0
    y: 0.0
    z: -0.21704185009
    w: 0.976162314415
---
header: 
  seq: 13095
  stamp: 
    secs: 1648516600
    nsecs: 107487357
  frame_id: "map"
pose: 
  position: 
    x: -0.275909423828
    y: -1.01986694336
    z: 0.0
  orientation: 
    x: 0.0
    y: 0.0
    z: -0.218252599239
    w: 0.975892305374
---
header: 
  seq: 13096
  stamp: 
    secs: 1648516600
    nsecs: 201239515
  frame_id: "map"
pose: 
  position: 
    x: -0.277614593506
    y: -1.02395629883
    z: 0.0
  orientation: 
    x: 0.0
    y: 0.0
    z: -0.217905908823
    w: 0.975969791412
---
header: 
  seq: 13097
  stamp: 
    secs: 1648516600
    nsecs: 267165716
  frame_id: "map"
pose: 
  position: 
    x: -0.270557403564
    y: -1.03898620605
    z: 0.0
  orientation: 
    x: 0.0
    y: 0.0
    z: -0.21543893218
    w: 0.976517319679
---
header: 
  seq: 13098
  stamp: 
    secs: 1648516600
    nsecs: 347166358
  frame_id: "map"
pose: 
  position: 
    x: -0.271923065186
    y: -1.02565002441
    z: 0.0
  orientation: 
    x: 0.0
    y: 0.0
    z: -0.217702522874
    w: 0.976015150547
---
header: 
  seq: 13099
  stamp: 
    secs: 1648516600
    nsecs: 387164206
  frame_id: "map"
pose: 
  position: 
    x: -0.277381896973
    y: -1.02446365356
    z: 0.0
  orientation: 
    x: 0.0
    y: 0.0
    z: -0.217567563057
    w: 0.976045250893
---
header: 
  seq: 13100
  stamp: 
    secs: 1648516600
    nsecs: 493876296
  frame_id: "map"
pose: 
  position: 
    x: -0.268592834473
    y: -1.02675628662
    z: 0.0
  orientation: 
    x: 0.0
    y: 0.0
    z: -0.220340788364
    w: 0.975422978401
---
header: 
  seq: 13101
  stamp: 
    secs: 1648516600
    nsecs: 547168251
  frame_id: "map"
pose: 
  position: 
    x: -0.272449493408
    y: -1.02274703979
    z: 0.0
  orientation: 
    x: 0.0
    y: 0.0
    z: -0.224753409624
    w: 0.974415659904
---
header: 
  seq: 13102
  stamp: 
    secs: 1648516600
    nsecs: 627154362
  frame_id: "map"
pose: 
  position: 
    x: -0.274673461914
    y: -1.00688934326
    z: 0.0
  orientation: 
    x: 0.0
    y: 0.0
    z: -0.230001926422
    w: 0.973190188408
---
header: 
  seq: 13103
  stamp: 
    secs: 1648516600
    nsecs: 681227119
  frame_id: "map"
pose: 
  position: 
    x: -0.263004302979
    y: -1.03449630737
    z: 0.0
  orientation: 
    x: 0.0
    y: 0.0
    z: -0.231809705496
    w: 0.972761154175
---
header: 
  seq: 13104
  stamp: 
    secs: 1648516600
    nsecs: 787268306
  frame_id: "map"
pose: 
  position: 
    x: -0.268699645996
    y: -1.01262664795
    z: 0.0
  orientation: 
    x: 0.0
    y: 0.0
    z: -0.235594570637
    w: 0.971851408482
---
header: 
  seq: 13105
  stamp: 
    secs: 1648516600
    nsecs: 827234902
  frame_id: "map"
pose: 
  position: 
    x: -0.272476196289
    y: -1.00662994385
    z: 0.0
  orientation: 
    x: 0.0
    y: 0.0
    z: -0.235611706972
    w: 0.971847295761
---
header: 
  seq: 13106
  stamp: 
    secs: 1648516600
    nsecs: 921363737
  frame_id: "map"
pose: 
  position: 
    x: -0.27091217041
    y: -1.00594711304
    z: 0.0
  orientation: 
    x: 0.0
    y: 0.0
    z: -0.232174038887
    w: 0.972674250603
---
header: 
  seq: 13107
  stamp: 
    secs: 1648516600
    nsecs: 987308272
  frame_id: "map"
pose: 
  position: 
    x: -0.26587677002
    y: -1.0100479126
    z: 0.0
  orientation: 
    x: 0.0
    y: 0.0
    z: -0.230540186167
    w: 0.973062813282
---
header: 
  seq: 13108
  stamp: 
    secs: 1648516601
    nsecs:  67264277
  frame_id: "map"
pose: 
  position: 
    x: -0.267890930176
    y: -1.00870132446
    z: 0.0
  orientation: 
    x: 0.0
    y: 0.0
    z: -0.230174317956
    w: 0.973149418831
---
header: 
  seq: 13109
  stamp: 
    secs: 1648516601
    nsecs: 107163475
  frame_id: "map"
pose: 
  position: 
    x: -0.270736694336
    y: -1.00410842896
    z: 0.0
  orientation: 
    x: 0.0
    y: 0.0
    z: -0.230385676026
    w: 0.973099410534
---
header: 
  seq: 13110
  stamp: 
    secs: 1648516601
    nsecs: 213968900
  frame_id: "map"
pose: 
  position: 
    x: -0.266044616699
    y: -1.00477600098
    z: 0.0
  orientation: 
    x: 0.0
    y: 0.0
    z: -0.229289993644
    w: 0.973358154297
---
header: 
  seq: 13111
  stamp: 
    secs: 1648516601
    nsecs: 267163925
  frame_id: "map"
pose: 
  position: 
    x: -0.263069152832
    y: -0.999504089355
    z: 0.0
  orientation: 
    x: 0.0
    y: 0.0
    z: -0.2289827317
    w: 0.973430514336
---
header: 
  seq: 13112
  stamp: 
    secs: 1648516601
    nsecs: 347067376
  frame_id: "map"
pose: 
  position: 
    x: -0.26099395752
    y: -0.995548248291
    z: 0.0
  orientation: 
    x: 0.0
    y: 0.0
    z: -0.229204133153
    w: 0.973378360271
---
header: 
  seq: 13113
  stamp: 
    secs: 1648516601
    nsecs: 401252323
  frame_id: "map"
pose: 
  position: 
    x: -0.266536712646
    y: -0.996097564697
    z: 0.0
  orientation: 
    x: 0.0
    y: 0.0
    z: -0.230755701661
    w: 0.973011732101
---
header: 
  seq: 13114
  stamp: 
    secs: 1648516601
    nsecs: 467014717
  frame_id: "map"
pose: 
  position: 
    x: -0.258769989014
    y: -0.991477966309
    z: 0.0
  orientation: 
    x: 0.0
    y: 0.0
    z: -0.236733242869
    w: 0.971574664116
---
header: 
  seq: 13115
  stamp: 
    secs: 1648516601
    nsecs: 546995930
  frame_id: "map"
pose: 
  position: 
    x: -0.253372192383
    y: -0.99813079834
    z: 0.0
  orientation: 
    x: 0.0
    y: 0.0
    z: -0.23906981945
    w: 0.971002399921
---
header: 
  seq: 13116
  stamp: 
    secs: 1648516601
    nsecs: 641160807
  frame_id: "map"
pose: 
  position: 
    x: -0.243824005127
    y: -1.0060043335
    z: 0.0
  orientation: 
    x: 0.0
    y: 0.0
    z: -0.243008285761
    w: 0.970024228096
---
header: 
  seq: 13117
  stamp: 
    secs: 1648516601
    nsecs: 707134404
  frame_id: "map"
pose: 
  position: 
    x: -0.249286651611
    y: -0.99564743042
    z: 0.0
  orientation: 
    x: 0.0
    y: 0.0
    z: -0.247986659408
    w: 0.96876347065
---
header: 
  seq: 13118
  stamp: 
    secs: 1648516601
    nsecs: 734085702
  frame_id: "map"
pose: 
  position: 
    x: -0.256408691406
    y: -0.974296569824
    z: 0.0
  orientation: 
    x: 0.0
    y: 0.0
    z: -0.250774592161
    w: 0.968045532703
---
header: 
  seq: 13119
  stamp: 
    secs: 1648516601
    nsecs: 853798401
  frame_id: "map"
pose: 
  position: 
    x: -0.245063781738
    y: -0.990413665771
    z: 0.0
  orientation: 
    x: 0.0
    y: 0.0
    z: -0.252813160419
    w: 0.96751511097
---
header: 
  seq: 13120
  stamp: 
    secs: 1648516601
    nsecs: 893781456
  frame_id: "map"
pose: 
  position: 
    x: -0.238899230957
    y: -0.993083953857
    z: 0.0
  orientation: 
    x: 0.0
    y: 0.0
    z: -0.252964019775
    w: 0.967475712299
---
header: 
  seq: 13121
  stamp: 
    secs: 1648516601
    nsecs: 973898975
  frame_id: "map"
pose: 
  position: 
    x: -0.241497039795
    y: -0.996387481689
    z: 0.0
  orientation: 
    x: 0.0
    y: 0.0
    z: -0.25600245595
    w: 0.96667611599
---
header: 
  seq: 13122
  stamp: 
    secs: 1648516602
    nsecs:  67124919
  frame_id: "map"
pose: 
  position: 
    x: -0.249572753906
    y: -0.972999572754
    z: 0.0
  orientation: 
    x: 0.0
    y: 0.0
    z: -0.259871900082
    w: 0.965643107891
---
header: 
  seq: 13123
  stamp: 
    secs: 1648516602
    nsecs: 133902808
  frame_id: "map"
pose: 
  position: 
    x: -0.240364074707
    y: -0.989250183105
    z: 0.0
  orientation: 
    x: 0.0
    y: 0.0
    z: -0.260906159878
    w: 0.965364158154
---
header: 
  seq: 13124
  stamp: 
    secs: 1648516602
    nsecs: 173837476
  frame_id: "map"
pose: 
  position: 
    x: -0.237861633301
    y: -0.989078521729
    z: 0.0
  orientation: 
    x: 0.0
    y: 0.0
    z: -0.261887192726
    w: 0.965098500252
---
header: 
  seq: 13125
  stamp: 
    secs: 1648516602
    nsecs: 267136546
  frame_id: "map"
pose: 
  position: 
    x: -0.238048553467
    y: -0.988994598389
    z: 0.0
  orientation: 
    x: 0.0
    y: 0.0
    z: -0.259890526533
    w: 0.965638101101
---
header: 
  seq: 13126
  stamp: 
    secs: 1648516602
    nsecs: 333801047
  frame_id: "map"
pose: 
  position: 
    x: -0.240043640137
    y: -0.979103088379
    z: 0.0
  orientation: 
    x: 0.0
    y: 0.0
    z: -0.259531378746
    w: 0.965734660625
---
header: 
  seq: 13127
  stamp: 
    secs: 1648516602
    nsecs: 413904346
  frame_id: "map"
pose: 
  position: 
    x: -0.228172302246
    y: -0.993598937988
    z: 0.0
  orientation: 
    x: 0.0
    y: 0.0
    z: -0.258521348238
    w: 0.966005563736
---
header: 
  seq: 13128
  stamp: 
    secs: 1648516602
    nsecs: 453859847
  frame_id: "map"
pose: 
  position: 
    x: -0.228675842285
    y: -0.996982574463
    z: 0.0
  orientation: 
    x: 0.0
    y: 0.0
    z: -0.256796598434
    w: 0.966465473175
---
header: 
  seq: 13129
  stamp: 
    secs: 1648516602
    nsecs: 573862501
  frame_id: "map"
pose: 
  position: 
    x: -0.230018615723
    y: -0.976596832275
    z: 0.0
  orientation: 
    x: 0.0
    y: 0.0
    z: -0.259875118732
    w: 0.965642213821
---
header: 
  seq: 13130
  stamp: 
    secs: 1648516602
    nsecs: 613881649
  frame_id: "map"
pose: 
  position: 
    x: -0.223457336426
    y: -0.994239807129
    z: 0.0
  orientation: 
    x: 0.0
    y: 0.0
    z: -0.261201202869
    w: 0.965284407139
---
header: 
  seq: 13131
  stamp: 
    secs: 1648516602
    nsecs: 693859424
  frame_id: "map"
pose: 
  position: 
    x: -0.221157073975
    y: -0.979145050049
    z: 0.0
  orientation: 
    x: 0.0
    y: 0.0
    z: -0.264154314995
    w: 0.96448045969
---
header: 
  seq: 13132
  stamp: 
    secs: 1648516602
    nsecs: 747152628
  frame_id: "map"
pose: 
  position: 
    x: -0.227825164795
    y: -0.982082366943
    z: 0.0
  orientation: 
    x: 0.0
    y: 0.0
    z: -0.263815104961
    w: 0.964573264122
---
header: 
  seq: 13133
  stamp: 
    secs: 1648516602
    nsecs: 853804818
  frame_id: "map"
pose: 
  position: 
    x: -0.220897674561
    y: -0.977752685547
    z: 0.0
  orientation: 
    x: 0.0
    y: 0.0
    z: -0.264698088169
    w: 0.964331328869
---
header: 
  seq: 13134
  stamp: 
    secs: 1648516602
    nsecs: 893834696
  frame_id: "map"
pose: 
  position: 
    x: -0.209197998047
    y: -0.995941162109
    z: 0.0
  orientation: 
    x: 0.0
    y: 0.0
    z: -0.262148112059
    w: 0.965027630329
---
header: 
  seq: 13135
  stamp: 
    secs: 1648516602
    nsecs: 987159184
  frame_id: "map"
pose: 
  position: 
    x: -0.216701507568
    y: -0.983955383301
    z: 0.0
  orientation: 
    x: 0.0
    y: 0.0
    z: -0.261063814163
    w: 0.965321540833
---
header: 
  seq: 13136
  stamp: 
    secs: 1648516603
    nsecs:  53844518
  frame_id: "map"
pose: 
  position: 
    x: -0.203609466553
    y: -0.997718811035
    z: 0.0
  orientation: 
    x: 0.0
    y: 0.0
    z: -0.26159542799
    w: 0.965177595615
---
header: 
  seq: 13137
  stamp: 
    secs: 1648516603
    nsecs: 133913857
  frame_id: "map"
pose: 
  position: 
    x: -0.21170425415
    y: -0.973648071289
    z: 0.0
  orientation: 
    x: 0.0
    y: 0.0
    z: -0.264098882675
    w: 0.96449559927
---
header: 
  seq: 13138
  stamp: 
    secs: 1648516603
    nsecs: 174041498
  frame_id: "map"
pose: 
  position: 
    x: -0.202495574951
    y: -0.990440368652
    z: 0.0
  orientation: 
    x: 0.0
    y: 0.0
    z: -0.265517890453
    w: 0.964105963707
---
header: 
  seq: 13139
  stamp: 
    secs: 1648516603
    nsecs: 281320058
  frame_id: "map"
pose: 
  position: 
    x: -0.19603729248
    y: -0.995964050293
    z: 0.0
  orientation: 
    x: 0.0
    y: 0.0
    z: -0.270446956158
    w: 0.962734878063
---
header: 
  seq: 13140
  stamp: 
    secs: 1648516603
    nsecs: 333869386
  frame_id: "map"
pose: 
